{"baidu":{"lng":116.442752,"lat":39.976692},"id":1,"name":"爱琴海购物中心","city":"北京"}
{"baidu":{"lng":116.465309,"lat":39.912463},"id":2,"name":"北京银泰中心","city":"北京"}
{"baidu":{"lng":116.488782,"lat":39.995627},"id":3,"name":"方恒购物中心","city":"北京"}
{"baidu":{"lng":116.369027,"lat":39.921206},"id":4,"name":"金融街购物中心","city":"北京"}
{"baidu":{"lng":116.475496,"lat":39.998708},"id":5,"name":"凯德MALL·望京","city":"北京"}
{"baidu":{"lng":116.439344,"lat":39.946504},"id":6,"name":"来福士购物中心","city":"北京"}
{"baidu":{"lng":116.456427,"lat":39.925253},"id":7,"name":"侨福芳草地购物中心","city":"北京"}
{"baidu":{"lng":116.442217,"lat":39.946241},"id":8,"name":"东方银座购物中心","city":"北京"}
{"baidu":{"lng":116.297214,"lat":40.102065},"id":9,"name":"永旺国际商城购物中心","city":"北京"}
{"baidu":{"lng":116.344148,"lat":39.895194},"id":10,"name":"华联商厦(广安门店)","city":"北京"}
{"baidu":{"lng":116.421634,"lat":39.915168},"id":11,"name":"东方新天地","city":"北京"}
{"baidu":{"lng":116.365199,"lat":39.913708},"id":12,"name":"百盛购物中心(复兴门店)","city":"北京"}
{"baidu":{"lng":116.497379,"lat":39.975663},"id":13,"name":"颐堤港","city":"北京"}
{"baidu":{"lng":116.458851,"lat":39.922299},"id":14,"name":"世贸天阶北街","city":"北京"}
{"baidu":{"lng":116.444682,"lat":39.928137},"id":15,"name":"悠唐生活广场","city":"北京"}
{"baidu":{"lng":116.524028,"lat":39.929707},"id":16,"name":"朝阳大悦城","city":"北京"}
{"baidu":{"lng":116.46482,"lat":39.918751},"id":17,"name":"国贸商城","city":"北京"}
{"baidu":{"lng":116.480796,"lat":39.914476},"id":18,"name":"金地广场","city":"北京"}
{"baidu":{"lng":116.444732,"lat":39.929866},"id":19,"name":"丰联广场","city":"北京"}
{"baidu":{"lng":116.455757,"lat":39.927909},"id":20,"name":"蓝岛大厦(朝阳店)","city":"北京"}
{"baidu":{"lng":116.44825,"lat":39.913757},"id":21,"name":"赛特购物中心","city":"北京"}
{"baidu":{"lng":116.37948,"lat":39.915763},"id":22,"name":"君太百货","city":"北京"}
{"baidu":{"lng":116.381854,"lat":39.915534},"id":23,"name":"汉光百货","city":"北京"}
{"baidu":{"lng":116.380689,"lat":39.919989},"id":24,"name":"老佛爷百货","city":"北京"}
{"baidu":{"lng":116.42829,"lat":40.04798},"id":25,"name":"易事达购物休闲广场","city":"北京"}
{"baidu":{"lng":116.413647,"lat":40.00038},"id":26,"name":"北辰购物中心(亚运村店)","city":"北京"}
{"baidu":{"lng":116.413487,"lat":39.99837},"id":27,"name":"北辰购物中心生活广场","city":"北京"}
{"baidu":{"lng":116.467241,"lat":39.91956},"id":28,"name":"嘉里中心","city":"北京"}
{"baidu":{"lng":116.465839,"lat":39.923199},"id":29,"name":"财富购物中心","city":"北京"}
{"baidu":{"lng":116.456435,"lat":39.94073},"id":30,"name":"世茂广场·工三","city":"北京"}
{"baidu":{"lng":116.442178,"lat":39.944278},"id":31,"name":"东环广场A座","city":"北京"}
{"baidu":{"lng":116.464206,"lat":39.968391},"id":32,"name":"凤凰汇购物中心","city":"北京"}
{"baidu":{"lng":116.50178,"lat":39.96855},"id":33,"name":"久隆百货","city":"北京"}
{"baidu":{"lng":116.396913,"lat":39.98643},"id":34,"name":"唐人街购物广场","city":"北京"}
{"baidu":{"lng":116.479293,"lat":39.999296},"id":35,"name":"新一城购物中心","city":"北京"}
{"baidu":{"lng":116.486678,"lat":39.992352},"id":36,"name":"新世界利莹百货","city":"北京"}
{"baidu":{"lng":116.49487,"lat":39.884308},"id":37,"name":"燕莎奥特莱斯购物中心B座","city":"北京"}
{"baidu":{"lng":116.482421,"lat":39.95505},"id":38,"name":"蓝色港湾国际商区","city":"北京"}
{"baidu":{"lng":116.418907,"lat":39.905718},"id":39,"name":"新世界女子百货","city":"北京"}
{"baidu":{"lng":116.359076,"lat":39.947106},"id":40,"name":"凯德MALL·西直门","city":"北京"}
{"baidu":{"lng":116.332132,"lat":39.972511},"id":41,"name":"双安商场","city":"北京"}
{"baidu":{"lng":116.327347,"lat":39.976091},"id":42,"name":"当代商城","city":"北京"}
{"baidu":{"lng":116.329663,"lat":39.971101},"id":43,"name":"华宇时尚购物中心","city":"北京"}
{"baidu":{"lng":116.34072,"lat":40.035883},"id":44,"name":"华润五彩城","city":"北京"}
{"baidu":{"lng":116.321725,"lat":39.984391},"id":45,"name":"新中关购物中心","city":"北京"}
{"baidu":{"lng":116.32161,"lat":39.985165},"id":46,"name":"欧美汇购物中心","city":"北京"}
{"baidu":{"lng":116.34587,"lat":39.998335},"id":47,"name":"五道口购物中心","city":"北京"}
{"baidu":{"lng":116.301697,"lat":39.979194},"id":48,"name":"北京华联万柳购物中心","city":"北京"}
{"baidu":{"lng":116.380752,"lat":39.917603},"id":49,"name":"华远西单购物中心","city":"北京"}
{"baidu":{"lng":116.34767,"lat":39.894135},"id":50,"name":"天虹百货(宣武门店)","city":"北京"}
{"baidu":{"lng":116.381686,"lat":39.903552},"id":51,"name":"庄胜崇光百货","city":"北京"}
{"baidu":{"lng":116.36058,"lat":40.014224},"id":52,"name":"圣熙8号购物中心","city":"北京"}
{"baidu":{"lng":116.37797,"lat":39.953639},"id":53,"name":"新华百货","city":"北京"}
{"baidu":{"lng":116.309347,"lat":39.918419},"id":54,"name":"凯德MALL·翠微路","city":"北京"}
{"baidu":{"lng":116.311784,"lat":39.9144},"id":55,"name":"翠微广场","city":"北京"}
{"baidu":{"lng":116.28556,"lat":39.919671},"id":56,"name":"卓展购物中心","city":"北京"}
{"baidu":{"lng":116.453662,"lat":39.863114},"id":57,"name":"新业广场","city":"北京"}
{"baidu":{"lng":116.391881,"lat":39.850596},"id":58,"name":"银泰百货(大红门店)","city":"北京"}
{"baidu":{"lng":116.332817,"lat":39.882869},"id":59,"name":"新年华购物中心","city":"北京"}
{"baidu":{"lng":116.351997,"lat":39.913521},"id":60,"name":"长安商场","city":"北京"}
{"baidu":{"lng":116.318162,"lat":40.034509},"id":61,"name":"北京华联上地购物中心","city":"北京"}
{"baidu":{"lng":116.295953,"lat":39.964604},"id":62,"name":"金源新燕莎MALL","city":"北京"}
{"baidu":{"lng":116.373468,"lat":39.860462},"id":63,"name":"凯德MALL·大峡谷","city":"北京"}
{"baidu":{"lng":116.554166,"lat":40.072788},"id":64,"name":"欧陆时尚购物中心","city":"北京"}
{"baidu":{"lng":116.362577,"lat":39.958949},"id":65,"name":"枫蓝国际购物中心","city":"北京"}
{"baidu":{"lng":116.277937,"lat":39.949851},"id":66,"name":"金四季购物中心","city":"北京"}
{"baidu":{"lng":116.339821,"lat":39.932791},"id":67,"name":"甘家口大厦(三里河店)","city":"北京"}
{"baidu":{"lng":116.232729,"lat":39.911564},"id":68,"name":"万达广场(石景山店)","city":"北京"}
{"baidu":{"lng":116.202851,"lat":39.931588},"id":69,"name":"当代商城(鼎城店)","city":"北京"}
{"baidu":{"lng":116.226413,"lat":39.912235},"id":70,"name":"华联商厦(石景山店)","city":"北京"}
{"baidu":{"lng":116.341448,"lat":39.770388},"id":71,"name":"绿地缤纷城(大兴店)","city":"北京"}
{"baidu":{"lng":116.348968,"lat":39.735551},"id":72,"name":"王府井百货(大兴店)","city":"北京"}
{"baidu":{"lng":116.414889,"lat":40.003786},"id":73,"name":"飘亮购物中心","city":"北京"}
{"baidu":{"lng":116.303909,"lat":39.914358},"id":74,"name":"凯德晶品购物中心","city":"北京"}
{"baidu":{"lng":116.417939,"lat":39.922009},"id":75,"name":"北京王府井银泰in88","city":"北京"}
{"baidu":{"lng":116.467337,"lat":39.900681},"id":76,"name":"VIVA北京富力广场","city":"北京"}
{"baidu":{"lng":116.424607,"lat":39.904126},"id":77,"name":"新世界百货(崇文门店)","city":"北京"}
{"baidu":{"lng":116.427728,"lat":39.921075},"id":78,"name":"金宝汇购物中心","city":"北京"}
{"baidu":{"lng":116.52846,"lat":39.94694},"id":79,"name":"活力东方购物广场","city":"北京"}
{"baidu":{"lng":116.469798,"lat":39.954476},"id":80,"name":"燕莎友谊商城","city":"北京"}
{"baidu":{"lng":116.421992,"lat":40.065949},"id":81,"name":"龙德广场","city":"北京"}
{"baidu":{"lng":116.422534,"lat":40.066735},"id":82,"name":"翠微百货(龙德广场店)","city":"北京"}
{"baidu":{"lng":116.325883,"lat":40.081787},"id":83,"name":"北京华联回龙观购物中心","city":"北京"}
{"baidu":{"lng":116.402778,"lat":40.007904},"id":84,"name":"天虹百货(新奥店)","city":"北京"}
{"baidu":{"lng":116.42575,"lat":39.9045},"id":85,"name":"国瑞购物中心","city":"北京"}
{"baidu":{"lng":116.460622,"lat":39.944091},"id":86,"name":"三里屯Village北区","city":"北京"}
{"baidu":{"lng":116.46107,"lat":39.940364},"id":87,"name":"三里屯Village南区","city":"北京"}
{"baidu":{"lng":116.44885,"lat":39.964666},"id":88,"name":"天虹百货(国展店)","city":"北京"}
{"baidu":{"lng":116.29804,"lat":39.96506},"id":89,"name":"燕莎友谊商城(金源店)","city":"北京"}
{"baidu":{"lng":116.292125,"lat":39.844655},"id":90,"name":"资和信百货","city":"北京"}
{"baidu":{"lng":116.417954,"lat":39.919795},"id":91,"name":"北京apm购物中心","city":"北京"}
{"baidu":{"lng":116.400407,"lat":40.005893},"id":92,"name":"新奥购物中心","city":"北京"}
{"baidu":{"lng":116.453721,"lat":39.977688},"id":93,"name":"凯德MALL·太阳宫","city":"北京"}
{"baidu":{"lng":116.486425,"lat":39.91487},"id":94,"name":"华贸购物中心","city":"北京"}
{"baidu":{"lng":116.416354,"lat":39.919968},"id":95,"name":"王府井百货(王府井大街店)","city":"北京"}
{"baidu":{"lng":116.378948,"lat":39.917527},"id":96,"name":"西单大悦城","city":"北京"}
{"baidu":{"lng":116.380653,"lat":39.918364},"id":97,"name":"西单商场(西单店)","city":"北京"}
{"baidu":{"lng":116.37244,"lat":39.983168},"id":98,"name":"翠微百货(牡丹园店)","city":"北京"}
{"baidu":{"lng":116.474916,"lat":40.016518},"id":99,"name":"望京华彩商业中心","city":"北京"}
{"baidu":{"lng":116.46646,"lat":39.955084},"id":100,"name":"都汇天地购物中心","city":"北京"}
{"baidu":{"lng":116.376381,"lat":39.840341},"id":101,"name":"北京华联公益西桥购物中心","city":"北京"}
{"baidu":{"lng":116.485083,"lat":39.915071},"id":102,"name":"北京SKP","city":"北京"}
{"baidu":{"lng":116.439933,"lat":39.996048},"id":103,"name":"远洋未来广场","city":"北京"}
{"baidu":{"lng":116.300036,"lat":39.87313},"id":104,"name":"华堂商场(丰台北路店)","city":"北京"}
{"baidu":{"lng":116.331753,"lat":39.796254},"id":105,"name":"西红门荟聚购物中心","city":"北京"}
{"baidu":{"lng":116.331753,"lat":39.796254},"id":106,"name":"通州万达广场","city":"北京"}
{"baidu":{"lng":116.606324,"lat":39.930468},"id":107,"name":"龙湖长楹天街","city":"北京"}
{"baidu":{"lng":116.341448,"lat":39.770388},"id":108,"name":"绿地缤纷城","city":"北京"}
{"baidu":{"lng":116.423166,"lat":40.011827},"id":112,"name":"金泉广场","city":"北京"}
{"baidu":{"lng":116.166704,"lat":39.763303},"id":114,"name":"北京绿地中心","city":"北京"}
{"baidu":{"lng":116.471909,"lat":40.026885},"id":115,"name":"望京城盈中心","city":"北京"}
{"baidu":{"lng":122.10903,"lat":37.517433},"id":116,"name":"五棵松文化广场","city":"北京"}
{"baidu":{"lng":116.42575,"lat":39.9045},"id":117,"name":"国瑞哈德门","city":"北京"}
{"baidu":{"lng":116.410054,"lat":39.817151},"id":118,"name":"宝苑国际购物中心","city":"北京"}
{"baidu":{"lng":116.294132,"lat":39.838041},"id":120,"name":"时代财富天地城","city":"北京"}
{"baidu":{"lng":116.297252,"lat":39.823829},"id":121,"name":"城南购物中心","city":"北京"}
{"baidu":{"lng":116.211384,"lat":39.768073},"id":122,"name":"中粮万科半岛广场","city":"北京"}
{"baidu":{"lng":116.51888,"lat":39.79947},"id":123,"name":"溢彩城购物中心","city":"北京"}
{"baidu":{"lng":116.429117,"lat":39.82608},"id":124,"name":"世界之花","city":"北京"}
{"baidu":{"lng":116.539402,"lat":39.809773},"id":125,"name":"北京城乡世纪广场","city":"北京"}
{"baidu":{"lng":116.42722,"lat":39.994438},"id":130,"name":"华堂商场(亚运村店)","city":"北京"}
{"baidu":{"lng":116.60302,"lat":40.016911},"id":131,"name":"斯普瑞斯奥特莱斯","city":"北京"}
{"baidu":{"lng":116.417116,"lat":39.974488},"id":132,"name":"环球贸易中心","city":"北京"}
{"baidu":{"lng":116.467852,"lat":39.973555},"id":133,"name":"比如世界购物中心","city":"北京"}
{"baidu":{"lng":116.191607,"lat":39.770783},"id":134,"name":"首创奥特莱斯","city":"北京"}
{"baidu":{"lng":116.468874,"lat":39.899892},"id":135,"name":"乐成购物中心","city":"北京"}
{"baidu":{"lng":116.457713,"lat":39.914766},"id":136,"name":"贵友大厦(建国门店)","city":"北京"}
{"baidu":{"lng":116.662841,"lat":39.896412},"id":137,"name":"阳光新生活广场(通州店)","city":"北京"}
{"baidu":{"lng":116.347757,"lat":39.919401},"id":138,"name":"万方西单商场","city":"北京"}
{"baidu":{"lng":116.434863,"lat":39.911564},"id":139,"name":"恒基商城","city":"北京"}
{"baidu":{"lng":116.51181,"lat":39.92158},"id":140,"name":"阳光新城市广场","city":"北京"}
{"baidu":{"lng":116.602976,"lat":39.918142},"id":141,"name":"plus365","city":"北京"}
{"baidu":{"lng":116.458486,"lat":39.921981},"id":142,"name":"世贸天阶","city":"北京"}
{"baidu":{"lng":116.457386,"lat":39.924748},"id":143,"name":"SOHO尚都(西塔)","city":"北京"}
{"baidu":{"lng":116.352824,"lat":40.03629},"id":144,"name":"翠微百货(清河店)","city":"北京"}
{"baidu":{"lng":116.319322,"lat":39.987238},"id":145,"name":"中关村广场购物中心","city":"北京"}
{"baidu":{"lng":116.488465,"lat":40.004332},"id":279,"name":"望京新荟城","city":"北京"}
{"baidu":{"lng":116.470919,"lat":39.957366},"id":280,"name":"官舍","city":"北京"}
{"baidu":{"lng":116.827776,"lat":39.970783},"id":281,"name":"天洋广场","city":"北京"}
{"baidu":{"lng":116.422479,"lat":40.075245},"id":282,"name":"北京京妮儿童汇(天通苑店)","city":"北京"}
{"baidu":{"lng":116.425027,"lat":40.03937},"id":283,"name":"北京京妮儿童汇(北苑店)","city":"北京"}
{"baidu":{"lng":116.691304,"lat":39.887686},"id":284,"name":"北京京妮儿童汇(通州店)","city":"北京"}
{"baidu":{"lng":116.458194,"lat":39.923448},"id":285,"name":"中骏世界城","city":"北京"}
{"baidu":{"lng":116.664862,"lat":39.895747},"id":286,"name":"京通罗斯福广场","city":"北京"}
{"baidu":{"lng":116.177522,"lat":39.929506},"id":287,"name":"喜隆多新国际购物中心","city":"北京"}
{"baidu":{"lng":116.327903,"lat":39.902224},"id":288,"name":"北京西站商业广场","city":"北京"}
{"baidu":{"lng":116.27154,"lat":39.894474},"id":289,"name":"翠微大成店","city":"北京"}
{"baidu":{"lng":116.43929,"lat":40.05215},"id":290,"name":"华贸天地","city":"北京"}
{"baidu":{"lng":116.423188,"lat":40.038168},"id":291,"name":"北辰购物中心(北苑店)","city":"北京"}
{"baidu":{"lng":116.406009,"lat":39.861715},"id":292,"name":"福海国际","city":"北京"}
{"baidu":{"lng":116.412956,"lat":39.998114},"id":293,"name":"北辰时代名门","city":"北京"}
{"baidu":{"lng":116.404709,"lat":39.867295},"id":295,"name":"北京木樨园百荣世贸","city":"北京"}
{"baidu":{"lng":116.318921,"lat":39.915147},"id":296,"name":"国海购物广场","city":"北京"}
{"baidu":{"lng":116.473128,"lat":40.007683},"id":297,"name":"博泰国际商业广场","city":"北京"}
{"baidu":{"lng":116.583056,"lat":39.914428},"id":298,"name":"东星时尚广场","city":"北京"}
{"baidu":{"lng":116.417542,"lat":39.916454},"id":299,"name":"东华金街购物中心","city":"北京"}
{"baidu":{"lng":116.637927,"lat":40.321968},"id":300,"name":"京北大世界","city":"北京"}
{"baidu":{"lng":116.43526,"lat":39.87158},"id":301,"name":"方庄购物中心","city":"北京"}
{"baidu":{"lng":116.423691,"lat":40.014632},"id":302,"name":"上品折扣(亚奥旗舰店)","city":"北京"}
{"baidu":{"lng":116.319937,"lat":39.990873},"id":303,"name":"上品折扣(中关村店)","city":"北京"}
{"baidu":{"lng":116.286743,"lat":39.906832},"id":304,"name":"上品折扣(五棵松店)","city":"北京"}
{"baidu":{"lng":116.41813,"lat":39.917139},"id":305,"name":"上品折扣(王府井店)","city":"北京"}
{"baidu":{"lng":116.365416,"lat":39.857028},"id":306,"name":"上品折扣(草桥店)","city":"北京"}
{"baidu":{"lng":116.340882,"lat":40.084679},"id":307,"name":"上品折扣(回龙观店)","city":"北京"}
{"baidu":{"lng":116.444642,"lat":39.930641},"id":308,"name":"上品折扣(朝阳门店)","city":"北京"}
{"baidu":{"lng":116.336317,"lat":39.94481},"id":309,"name":"上品折扣(首体店)","city":"北京"}
{"baidu":{"lng":116.471391,"lat":40.022112},"id":310,"name":"上品折扣(来广营店)","city":"北京"}
{"baidu":{"lng":116.347948,"lat":39.919235},"id":311,"name":"上品折扣(三里河店)","city":"北京"}
{"baidu":{"lng":116.583921,"lat":39.914006},"id":312,"name":"北京国泰百货(双桥店)","city":"北京"}
{"baidu":{"lng":116.25076,"lat":40.226406},"id":313,"name":"北京国泰百货(昌平店)","city":"北京"}
{"baidu":{"lng":116.44156,"lat":40.079075},"id":314,"name":"北京国泰百货(天通苑店)","city":"北京"}
{"baidu":{"lng":116.642094,"lat":39.913065},"id":315,"name":"北京国泰百货(通州店)","city":"北京"}
{"baidu":{"lng":116.658158,"lat":40.135839},"id":316,"name":"北京国泰百货(顺义店)","city":"北京"}
{"baidu":{"lng":116.107603,"lat":39.945716},"id":317,"name":"北京国泰百货(门头沟店)","city":"北京"}
{"baidu":{"lng":116.148783,"lat":39.736675},"id":318,"name":"北京国泰百货(良乡店)","city":"北京"}
{"baidu":{"lng":117.117662,"lat":40.14678},"id":319,"name":"北京国泰百货(平谷店)","city":"北京"}
{"baidu":{"lng":116.852428,"lat":40.379674},"id":320,"name":"北京国泰百货(密云店)","city":"北京"}
{"baidu":{"lng":116.609326,"lat":40.052143},"id":321,"name":"北京国泰百货(首都机场店)","city":"北京"}
{"baidu":{"lng":116.615008,"lat":39.64334},"id":323,"name":"北京和谐广场","city":"北京"}
{"baidu":{"lng":116.450572,"lat":39.941187},"id":324,"name":"屯三里mall","city":"北京"}
{"baidu":{"lng":116.349547,"lat":39.735516},"id":325,"name":"火神庙商业中心","city":"北京"}
{"baidu":{"lng":116.490015,"lat":39.96255},"id":326,"name":"爱家国际商业中心","city":"北京"}
{"baidu":{"lng":116.145693,"lat":39.741287},"id":327,"name":"华冠购物中心(良乡店)","city":"北京"}
{"baidu":{"lng":116.313996,"lat":39.914656},"id":329,"name":"北京城乡贸易中心","city":"北京"}
{"baidu":{"lng":116.658243,"lat":40.134584},"id":330,"name":"北京华联顺义金街购物中心","city":"北京"}
{"baidu":{"lng":116.65694,"lat":40.132267},"id":331,"name":"北京隆华购物中心","city":"北京"}
{"baidu":{"lng":116.47731,"lat":40.002667},"id":332,"name":"北京望京休闲广场","city":"北京"}
{"baidu":{"lng":116.148387,"lat":39.736016},"id":333,"name":"北京宝源生活广场","city":"北京"}
{"baidu":{"lng":116.326844,"lat":39.903518},"id":334,"name":"北京天瑞购物广场","city":"北京"}
{"baidu":{"lng":116.32624,"lat":39.903656},"id":335,"name":"北京天瑞国际商城","city":"北京"}
{"baidu":{"lng":116.226413,"lat":39.912235},"id":336,"name":"北京华联商厦(石景山店)","city":"北京"}
{"baidu":{"lng":116.478521,"lat":39.915832},"id":337,"name":"万达CBD","city":"北京"}
{"baidu":{"lng":116.441001,"lat":39.976817},"id":338,"name":"北京太阳宫百盛","city":"北京"}
{"baidu":{"lng":116.607635,"lat":39.930834},"id":339,"name":"北京龙湖百盛","city":"北京"}
{"baidu":{"lng":116.478987,"lat":39.914829},"id":340,"name":"北京彩旋新世界百货","city":"北京"}
{"baidu":{"lng":116.657913,"lat":40.133122},"id":341,"name":"北京顺义新世界百货","city":"北京"}
{"baidu":{"lng":116.328351,"lat":39.691099},"id":342,"name":"龙湖时代天街","city":"北京"}
{"baidu":{"lng":116.24592,"lat":40.218033},"id":343,"name":"金隅·万科广场","city":"北京"}
{"baidu":{"lng":116.293056,"lat":39.964562},"id":345,"name":"贵友大厦(金源店)","city":"北京"}
{"baidu":{"lng":116.67326,"lat":39.890184},"id":346,"name":"贵友大厦(通州店)","city":"北京"}
{"baidu":{"lng":116.260086,"lat":39.936291},"id":347,"name":"京粮广场","city":"北京"}
{"baidu":{"lng":116.360956,"lat":39.929755},"id":348,"name":"华联商厦(阜成门店)","city":"北京"}
{"baidu":{"lng":116.407535,"lat":39.977128},"id":349,"name":"华联商厦(安贞店)","city":"北京"}
{"baidu":{"lng":116.475625,"lat":39.99772},"id":350,"name":"华联商厦(望京店)","city":"北京"}
{"baidu":{"lng":116.34557,"lat":39.997997},"id":351,"name":"华联商厦(五道口店)","city":"北京"}
{"baidu":{"lng":116.376306,"lat":39.839946},"id":352,"name":"华联商厦(马家堡店)","city":"北京"}
{"baidu":{"lng":116.42245,"lat":40.076826},"id":353,"name":"北京华联天通苑购物中心","city":"北京"}
{"baidu":{"lng":116.344157,"lat":40.07726},"id":354,"name":"北京华联同成街购物中心","city":"北京"}
{"baidu":{"lng":116.706598,"lat":39.924236},"id":355,"name":"北京华联武夷购物中心","city":"北京"}
{"baidu":{"lng":116.642709,"lat":39.910166},"id":356,"name":"北京华联天时名苑购物中心","city":"北京"}
{"baidu":{"lng":116.603434,"lat":39.932162},"id":357,"name":"北京华联常营购物中心","city":"北京"}
{"baidu":{"lng":116.277297,"lat":40.022568},"id":358,"name":"北京华联龙背村购物中心","city":"北京"}
{"baidu":{"lng":116.335064,"lat":39.910249},"id":359,"name":"北京华联军博购物中心","city":"北京"}
{"baidu":{"lng":116.508803,"lat":39.809128},"id":360,"name":"北京华联力宝购物中心","city":"北京"}
{"baidu":{"lng":116.473293,"lat":40.015654},"id":446,"name":"六佰本","city":"北京"}
{"baidu":{"lng":116.473293,"lat":40.015654},"id":448,"name":"悦秀城","city":"北京"}
{"baidu":{"lng":116.473293,"lat":40.015654},"id":449,"name":"将台新港","city":"北京"}
{"baidu":{"lng":116.331237,"lat":39.791701},"id":450,"name":"嘉悦广场","city":"北京"}
{"baidu":{"lng":116.331237,"lat":39.791701},"id":451,"name":"西奥中心","city":"北京"}
{"baidu":{"lng":116.545904,"lat":39.921262},"id":453,"name":"北京红星美凯龙朝阳路商场","city":"北京"}
{"baidu":{"lng":116.444845,"lat":40.029143},"id":454,"name":"北京红星美凯龙北五环商场","city":"北京"}
{"baidu":{"lng":116.376651,"lat":40.008525},"id":455,"name":"北京红星美凯龙北四环商场","city":"北京"}
{"baidu":{"lng":116.495007,"lat":39.893083},"id":456,"name":"北京红星美凯龙东四环商场","city":"北京"}
{"baidu":{"lng":116.279436,"lat":39.888917},"id":457,"name":"北京红星美凯龙西四环商场","city":"北京"}
{"baidu":{"lng":116.470061,"lat":39.98303},"id":459,"name":"宜家家居（四元桥店）","city":"北京"}
{"baidu":{"lng":116.331679,"lat":39.795409},"id":460,"name":"宜家家居（西红门店）","city":"北京"}
{"baidu":{"lng":116.354617,"lat":40.072071},"id":497,"name":"龙旗广场","city":"北京"}
{"baidu":{"lng":116.478521,"lat":39.915832},"id":499,"name":"万达总部","city":"北京"}
{"baidu":{"lng":11.633909,"lat":39.805456},"id":500,"name":"乐家购物中心","city":"北京"}
{"baidu":{"lng":116.421832,"lat":40.063484},"id":502,"name":"明珠百货","city":"北京"}
